{"type":"FeatureCollection","features":[{"type":"Feature","properties":{"Landmark":"Swink House, Cottage & Garden\t","Address":"1525–1529 Shattuck Avenue\t","Architect + Date":"James L. Swink (1900 & 1903)\t","Link":"http://berkeleyheritage.com/berkeley_landmarks/images/Swink_house_&_cottage.jpg","Designated":"1 May 2000\t","Notes":"Structure of Merit"},"geometry":{"coordinates":[-122.2688188784089,37.87928152624815],"type":"Point"}},{"type":"Feature","properties":{"Landmark":"John Hunter House\t","Link":"http://berkeleyheritage.com/berkeley_landmarks/images/John_Hunter_house1.jpg","Notes":"Structure of Merit","Address":"2418 California Street\t","Architect + Date":"(1894)","Designated":"5 Jun 2000\t"},"geometry":{"coordinates":[-122.27946527270785,37.86360299971818],"type":"Point"}},{"type":"Feature","properties":{"Landmark":"Unit 1 (U.C. dormitories)","Address":"Durant Avenue at College Avenue\t","Architect + Date":"Warnecke & Warnecke (1956–59)\t","Link":"http://www.ocf.berkeley.edu/~eldrin/photo_album_II/berkeley_tour/01.htm","Designated":"Sep 2000\t","Notes":"Designated for the sake of the wing-roofed dining commons, which were demolished in early 2003."},"geometry":{"coordinates":[-122.26114072676486,37.8675391278058],"type":"Point"}},{"type":"Feature","properties":{"Landmark":"Unit 2 (U.C. dormitories)","Notes":"Designated for the sake of the wing-roofed dining commons, which were demolished in early 2003.","Designated":"Sep 2000\t","Address":"Haste Street at College Avenue\t","Architect + Date":"Warnecke & Warnecke (1956–60)\t","Link":"http://www.ocf.berkeley.edu/~eldrin/photo_album_II/berkeley_tour/02.htm"},"geometry":{"coordinates":[-122.26223896477741,37.86556342243857],"type":"Point"}},{"type":"Feature","properties":{"Landmark":"J. Gorman & Son Building\t","Designated":"4 Dec 2000\t","Address":"2599 Telegraph Avenue\t","Architect + Date":"(c. 1877, 1906)","Link":"http://berkeleyheritage.com/berkeley_landmarks/gorman_bldg.html","Notes":"CA State Historic Resources Inventory"},"geometry":{"coordinates":[-122.25811455351186,37.863482372192905],"type":"Point"}},{"type":"Feature","properties":{"Landmark":"Ralph White House\t","Address":"1841 Marin Avenue\t","Architect + Date":"Julia Morgan (1913)\t","Designated":"8 Jan 2001\t","Link":"http://berkeleyheritage.com/berkeley_landmarks/images/1841Marin1.jpg","Notes":"CA State Historic Resources Inventory"},"geometry":{"coordinates":[-122.2770393685672,37.889173890032595],"type":"Point"}},{"type":"Feature","properties":{"Landmark":"Southern Pacific Railroad Station\t","Designated":"5 Mar 2001\t","Address":"700 University Avenue\t","Architect + Date":"Southern Pacific R.R. Architectural Bureau (1913)\t","Link":"http://berkeleyheritage.com/berkeley_landmarks/images/Southern_Pacific.jpg","Notes":"CA State Historic Resources Inventory"},"geometry":{"coordinates":[-122.30055300000024,37.86702238200306],"type":"Point"}},{"type":"Feature","properties":{"Landmark":"John Brennan House\t","Address":"1124–1126 Addison Street","Architect + Date":"Peter Crinnion (1891)\t","Link":"http://berkeleyheritage.com/berkeley_landmarks/images/John_Brennan_house1.jpg","Designated":"9 Jul 2001\t"},"geometry":{"coordinates":[-122.2904885573421,37.86809749661275],"type":"Point"}},{"type":"Feature","properties":{"Designated":"10 Sep 2001\t","Landmark":"Santa Fe Railway Station (now Montessori School)","Address":"1310 University Avenue\t","Architect + Date":"Charles Frederick Whittlesey (1903)\t","Link":"http://sunsite.berkeley.edu/FindingAids/dynaweb/calher/berkeley/figures/I0025728B.jpg","Notes":"CA State Historic Resources Inventory"},"geometry":{"coordinates":[-122.28625500000055,37.869332923963825],"type":"Point"},"id":8},{"type":"Feature","properties":{"Landmark":"Berkeley Public Library, North Branch","Address":"1170 The Alameda\t","Architect + Date":"James W. Plachek (1936)","Link":"http://berkeleyheritage.com/berkeley_landmarks/images/North_Berkeley_library.jpg","Designated":"1 Oct 2001\t","Notes":"CA State Historic Resources Inventory"},"geometry":{"coordinates":[-122.2754057022788,37.88546574394623],"type":"Point"}}]}